% program   : RTKPOST ver.2.4.3 b33
% inp file  : C:\Users\Shimpei\Documents\signal_classifier\data\200608_kinematic\200608RHCP.obs
% inp file  : C:\Users\Shimpei\Documents\signal_classifier\data\200608\電子基準点\0337160b.20o
% inp file  : C:\Users\Shimpei\Documents\signal_classifier\data\200608\電子基準点\0337160b*
% obs start : 2020/06/08 02:21:56.0 GPST (week2109  94916.0s)
% obs end   : 2020/06/08 02:37:02.0 GPST (week2109  95822.0s)
% pos mode  : kinematic
% freqs     : L1+L2
% solution  : forward
% elev mask : 5.0 deg
% dynamics  : on
% tidecorr  : off
% ionos opt : broadcast
% tropo opt : saastamoinen
% ephemeris : broadcast
% navi sys  : gps glonass galileo qzss beidou
% amb res   : continuous
% amb glo   : on
% val thres : 3.0
% antenna1  :                       ( 0.0000  0.0000  0.0000)
% antenna2  :                       ( 0.0000  0.0000  0.0000)
% ref pos   : 34.527303316  135.481356585    72.2100
%
% (lat/lon/height=WGS84/ellipsoidal,Q=1:fix,2:float,3:sbas,4:dgps,5:single,6:ppp,ns=# of satellites)
%  GPST                  latitude(deg) longitude(deg)  height(m)   Q  ns   sdn(m)   sde(m)   sdu(m)  sdne(m)  sdeu(m)  sdun(m) age(s)  ratio
2020/06/08 02:21:56.000   34.544952646  135.504870598    58.3027   2  11   0.8570   0.6028   1.4388   0.2103   0.5249   0.2169  26.00    1.2
2020/06/08 02:21:57.000   34.544953560  135.504870054    58.2282   2  11   0.6154   0.4300   1.0361   0.1528   0.3778   0.1839  27.00    1.3
2020/06/08 02:21:58.000   34.544961926  135.504872617    59.7052   2  11   0.5054   0.3524   0.8517   0.1260   0.3105   0.1576  28.00    1.3
2020/06/08 02:21:59.000   34.544968252  135.504873617    60.6173   2  11   0.4392   0.3059   0.7404   0.1097   0.2699   0.1393  29.00    1.1
2020/06/08 02:22:00.000   34.544976313  135.504875448    61.8861   2  10   0.3927   0.2732   0.6627   0.0982   0.2416   0.1279  -0.00    1.5
2020/06/08 02:22:01.000   34.544982825  135.504876842    62.8578   2  10   0.3587   0.2495   0.6056   0.0897   0.2208   0.1177   1.00    2.9
2020/06/08 02:22:02.000   34.544988469  135.504877930    63.6282   2  11   0.3321   0.2310   0.5604   0.0828   0.2043   0.1083   2.00    2.0
2020/06/08 02:22:03.000   34.544994053  135.504879069    64.5320   2  11   0.3108   0.2161   0.5246   0.0775   0.1913   0.1018   2.99    1.2
2020/06/08 02:22:04.000   34.544999428  135.504880279    65.4373   2  11   0.2931   0.2038   0.4948   0.0731   0.1805   0.0963   3.99    1.0
2020/06/08 02:22:05.000   34.545005394  135.504881774    66.4599   2  11   0.2782   0.1934   0.4697   0.0694   0.1713   0.0915   4.99    1.2
2020/06/08 02:22:06.000   34.545010828  135.504882852    67.2675   2  11   0.2653   0.1844   0.4480   0.0662   0.1634   0.0874   5.99    1.1
2020/06/08 02:22:07.000   34.545016421  135.504884024    68.1253   2  11   0.2540   0.1766   0.4291   0.0633   0.1565   0.0835   6.99    1.0
2020/06/08 02:22:08.000   34.545021926  135.504885351    69.0129   2  11   0.2441   0.1698   0.4124   0.0609   0.1504   0.0801   7.99    1.1
2020/06/08 02:22:09.000   34.545027916  135.504886649    69.9719   2  11   0.2353   0.1637   0.3976   0.0587   0.1450   0.0771   8.99    1.0
2020/06/08 02:22:10.000   34.545032736  135.504887753    70.7274   2  11   0.2274   0.1582   0.3842   0.0567   0.1402   0.0744   9.99    1.0
2020/06/08 02:22:11.000   34.545035538  135.504887936    71.0643   2  11   0.2203   0.1533   0.3722   0.0549   0.1358   0.0719  10.99    1.1
2020/06/08 02:22:12.000   34.545036702  135.504887372    71.1163   2  11   0.2138   0.1488   0.3613   0.0533   0.1318   0.0696  11.99    1.2
2020/06/08 02:22:13.000   34.545037912  135.504886862    71.1760   2  11   0.2079   0.1447   0.3513   0.0518   0.1282   0.0674  12.99    1.2
2020/06/08 02:22:14.000   34.545039421  135.504886561    71.3416   2  11   0.2025   0.1410   0.3421   0.0505   0.1248   0.0654  13.99    1.2
2020/06/08 02:22:15.000   34.545040757  135.504886292    71.4973   2  11   0.1975   0.1375   0.3337   0.0492   0.1218   0.0634  14.99    1.2
2020/06/08 02:22:16.000   34.545041134  135.504885621    71.4313   2  11   0.1929   0.1344   0.3258   0.0481   0.1189   0.0616  15.99    1.1
2020/06/08 02:22:17.000   34.545041840  135.504885196    71.4209   2  11   0.1886   0.1314   0.3186   0.0470   0.1163   0.0598  17.00    1.1
2020/06/08 02:22:18.000   34.545041881  135.504884498    71.3176   2  11   0.1846   0.1287   0.3118   0.0460   0.1138   0.0581  18.00    1.1
2020/06/08 02:22:19.000   34.545042436  135.504884129    71.3508   2  11   0.1809   0.1262   0.3055   0.0451   0.1115   0.0565  19.00    1.0
2020/06/08 02:22:20.000   34.545042455  135.504883604    71.2813   2  11   0.1774   0.1239   0.2996   0.0442   0.1093   0.0549  20.00    1.0
2020/06/08 02:22:21.000   34.545042240  135.504883035    71.1973   2  11   0.1742   0.1217   0.2941   0.0434   0.1073   0.0534  21.00    1.0
2020/06/08 02:22:22.000   34.545041791  135.504882413    71.0683   2  11   0.1711   0.1196   0.2889   0.0427   0.1054   0.0518  22.00    1.1
2020/06/08 02:22:23.000   34.545041344  135.504881846    70.9370   2  11   0.1683   0.1177   0.2841   0.0420   0.1037   0.0504  23.00    1.1
2020/06/08 02:22:24.000   34.545041078  135.504881318    70.8447   2  11   0.1656   0.1159   0.2795   0.0413   0.1020   0.0489  24.00    1.0
2020/06/08 02:22:25.000   34.545040589  135.504880778    70.6923   2  11   0.1631   0.1142   0.2751   0.0407   0.1004   0.0474  25.00    1.0
2020/06/08 02:22:26.000   34.545040172  135.504880293    70.5672   2  11   0.1607   0.1127   0.2711   0.0401   0.0989   0.0459  26.00    1.0
2020/06/08 02:22:27.000   34.545039983  135.504879906    70.4927   2  11   0.1585   0.1112   0.2672   0.0396   0.0975   0.0445  27.00    1.0
2020/06/08 02:22:28.000   34.545039719  135.504879538    70.4018   2  11   0.1564   0.1098   0.2635   0.0390   0.0961   0.0430  28.00    1.0
2020/06/08 02:22:29.000   34.545039515  135.504879291    70.3378   2  11   0.1544   0.1085   0.2601   0.0385   0.0949   0.0415  29.00    1.0
2020/06/08 02:22:30.000   34.545038823  135.504879197    70.2534   2  11   0.1480   0.1035   0.2511   0.0361   0.0917   0.0452  -0.00    1.1
2020/06/08 02:22:31.000   34.545038278  135.504879181    70.1911   2  11   0.1454   0.1020   0.2475   0.0351   0.0903   0.0432   1.00    1.0
2020/06/08 02:22:32.000   34.545037962  135.504879905    70.0145   2  11   0.1430   0.1006   0.2440   0.0344   0.0890   0.0416   2.00    1.2
2020/06/08 02:22:33.000   34.545038867  135.504881257    70.0121   2  10   0.1413   0.0993   0.2415   0.0343   0.0882   0.0427   2.99    1.1
2020/06/08 02:22:34.000   34.545038325  135.504881905    69.9200   2  10   0.1396   0.0981   0.2390   0.0341   0.0874   0.0433   3.99    1.1
2020/06/08 02:22:35.000   34.545037646  135.504882326    69.8864   2  10   0.1380   0.0970   0.2366   0.0339   0.0865   0.0440   4.99    1.2
2020/06/08 02:22:36.000   34.545037222  135.504882776    69.8376   2  10   0.1365   0.0959   0.2343   0.0338   0.0857   0.0445   5.99    1.2
2020/06/08 02:22:37.000   34.545036835  135.504883307    69.7713   2  10   0.1351   0.0948   0.2321   0.0336   0.0850   0.0451   6.99    1.2
2020/06/08 02:22:38.000   34.545036402  135.504883964    69.7259   2  10   0.1338   0.0938   0.2300   0.0335   0.0843   0.0455   7.99    1.1
2020/06/08 02:22:39.000   34.545036369  135.504884500    69.6437   2  10   0.1325   0.0929   0.2279   0.0334   0.0835   0.0459   8.99    1.0
2020/06/08 02:22:40.000   34.545036249  135.504885063    69.5872   2  10   0.1313   0.0920   0.2259   0.0333   0.0829   0.0463   9.99    1.1
2020/06/08 02:22:41.000   34.545035822  135.504885487    69.5252   2  10   0.1302   0.0911   0.2241   0.0333   0.0822   0.0466  10.99    1.1
2020/06/08 02:22:42.000   34.545035569  135.504885673    69.4819   2  10   0.1291   0.0903   0.2222   0.0332   0.0816   0.0468  11.99    1.1
2020/06/08 02:22:43.000   34.545033201  135.504882606    70.2542   2  10   0.1281   0.0896   0.2205   0.0331   0.0810   0.0469  12.99    1.0
2020/06/08 02:22:44.000   34.545030058  135.504875864    70.1952   2   9   0.1274   0.0889   0.2206   0.0335   0.0810   0.0496  13.99    1.2
2020/06/08 02:22:45.000   34.545029068  135.504866513    70.2461   2   8   0.1271   0.0895   0.2202   0.0337   0.0794   0.0487  14.99    1.6
2020/06/08 02:22:46.000   34.545030531  135.504856787    70.2229   2   8   0.1265   0.0893   0.2192   0.0333   0.0789   0.0494  15.99    1.7
2020/06/08 02:22:47.000   34.545037410  135.504843943    69.7383   2   9   0.1257   0.0877   0.2178   0.0334   0.0792   0.0505  17.00    1.9
2020/06/08 02:22:48.000   34.545045278  135.504834719    70.7890   2   9   0.1321   0.0871   0.2250   0.0365   0.0809   0.0724  18.00    1.6
2020/06/08 02:22:49.000   34.545037035  135.504823064    69.9123   2   7   0.1740   0.1823   0.2625   0.1037   0.0369   0.1270  19.00    1.3
2020/06/08 02:22:50.000   34.545054174  135.504804891    72.8023   2   9   0.1466   0.1444   0.2240   0.0941   0.0877   0.0780  20.00    1.3
2020/06/08 02:22:51.000   34.545046607  135.504790389    71.8508   2   8   0.1464   0.1268   0.2280   0.0780   0.0822   0.0882  21.00    1.1
2020/06/08 02:22:52.000   34.545045465  135.504778750    71.5945   2   8   0.1429   0.1180   0.2253   0.0701   0.0800   0.0849  22.00    1.0
2020/06/08 02:22:53.000   34.545044651  135.504767943    71.2483   2   7   0.1427   0.1149   0.2251   0.0695   0.0752   0.0800  23.00    1.2
2020/06/08 02:22:54.000   34.545043745  135.504756613    71.0946   2   7   0.1418   0.1114   0.2243   0.0673   0.0741   0.0788  24.00    1.0
2020/06/08 02:22:55.000   34.545041653  135.504744689    70.9397   2   7   0.1413   0.1089   0.2237   0.0661   0.0733   0.0783  25.00    1.1
2020/06/08 02:22:56.000   34.545033593  135.504727774    69.9185   2   8   0.1994   0.1224   0.2733   0.1124   0.1210   0.1681  26.00    1.0
2020/06/08 02:22:57.000   34.545033336  135.504714385    69.7741   2   8   0.1660   0.1122   0.2438   0.0872   0.0948   0.1211  27.00    1.1
2020/06/08 02:22:58.000   34.545033290  135.504701570    69.7424   2   7   0.1608   0.1090   0.2392   0.0813   0.0882   0.1128  28.00    1.2
2020/06/08 02:22:59.000   34.545032892  135.504689651    69.6570   2   7   0.1561   0.1069   0.2350   0.0773   0.0836   0.1048  29.00    1.0
2020/06/08 02:23:00.000   34.545033097  135.504680708    69.6160   2   7   0.1150   0.0838   0.1981   0.0371   0.0650   0.0525  -0.00    1.3
2020/06/08 02:23:01.000   34.545033566  135.504667637    69.6001   2   7   0.1134   0.0812   0.1961   0.0346   0.0651   0.0508   1.00    1.4
2020/06/08 02:23:02.000   34.545034830  135.504653713    69.5549   2   7   0.1147   0.0805   0.1963   0.0369   0.0668   0.0554   2.00    1.3
2020/06/08 02:23:03.000   34.545035721  135.504640597    69.5289   2   7   0.1129   0.0793   0.1944   0.0350   0.0655   0.0526   2.99    1.0
2020/06/08 02:23:04.000   34.545038012  135.504629227    69.4731   2   7   0.1121   0.0786   0.1933   0.0346   0.0649   0.0518   3.99    1.1
2020/06/08 02:23:05.000   34.545040488  135.504618617    69.4806   2   8   0.1115   0.0781   0.1921   0.0346   0.0644   0.0511   4.99    1.1
2020/06/08 02:23:06.000   34.545042751  135.504606353    69.4456   2   8   0.1108   0.0777   0.1909   0.0346   0.0637   0.0499   5.99    1.4
2020/06/08 02:23:07.000   34.545043939  135.504593554    69.4224   2   7   0.1109   0.0774   0.1905   0.0353   0.0635   0.0508   6.99    1.4
2020/06/08 02:23:08.000   34.545045352  135.504581030    69.2957   2   7   0.1108   0.0771   0.1899   0.0358   0.0631   0.0511   7.99    1.4
2020/06/08 02:23:09.000   34.545046042  135.504570836    69.1930   2   7   0.1116   0.0770   0.1897   0.0372   0.0631   0.0528   8.99    1.6
2020/06/08 02:23:10.000   34.545044802  135.504566367    69.0966   2   7   0.1142   0.0775   0.1909   0.0409   0.0606   0.0466   9.99    1.7
2020/06/08 02:23:11.000   34.545044332  135.504566004    69.1456   2   7   0.1129   0.0770   0.1898   0.0398   0.0614   0.0502  10.99    2.6
2020/06/08 02:23:12.000   34.545044643  135.504566605    69.3124   1   7   0.0384   0.0219   0.0469   0.0234   0.0056   0.0156  11.99    5.0
2020/06/08 02:23:13.000   34.545043991  135.504564538    69.2566   2   7   0.1179   0.0783   0.1910   0.0465   0.0586   0.0457  12.99    1.2
2020/06/08 02:23:14.000   34.545042573  135.504562479    69.2402   2   9   0.1387   0.1098   0.2320  -0.0646  -0.0826   0.1138  13.99    2.2
2020/06/08 02:23:15.000   34.545041603  135.504562575    69.1408   2   8   0.1331   0.0998   0.2182  -0.0528  -0.0600   0.1009  14.99    1.9
2020/06/08 02:23:16.000   34.545043289  135.504561604    69.2148   2   7   0.1334   0.0962   0.2150  -0.0451  -0.0474   0.0997  15.99    2.3
2020/06/08 02:23:17.000   34.545047086  135.504519940    78.3893   2   9   0.1282   0.0927   0.2096  -0.0450  -0.0414   0.0925  17.00    2.8
2020/06/08 02:23:18.000   34.544998334  135.504415947    83.7114   2   9   0.2199   0.2400   0.2345   0.1919  -0.1164  -0.0677  18.00    1.3
2020/06/08 02:23:19.000   34.545047006  135.504559697    69.7385   2   9   0.1415   0.1213   0.2450  -0.0720  -0.1040   0.1244  19.00    1.1
2020/06/08 02:23:20.000   34.545046994  135.504561044    69.6033   2   8   0.1444   0.1271   0.2525  -0.0775  -0.1142   0.1309  20.00    1.3
2020/06/08 02:23:21.000   34.545046950  135.504561036    69.6896   2   7   0.1463   0.1306   0.2571  -0.0804  -0.1200   0.1347  21.00    1.4
2020/06/08 02:23:22.000   34.545046806  135.504561747    69.4542   2   8   0.1480   0.1339   0.2614  -0.0829  -0.1253   0.1382  22.00    1.2
2020/06/08 02:23:23.000   34.545047477  135.504562543    69.6226   1   8   0.0918   0.1100   0.1831  -0.0751  -0.1292   0.1133  23.00    3.3
2020/06/08 02:23:24.000   34.545044505  135.504564288    69.4234   1   9   0.0930   0.1018   0.1680  -0.0667  -0.1154   0.1064  24.00   10.5
2020/06/08 02:23:25.000   34.545052459  135.504552427    71.7379   2   6   0.2158   0.1980   0.3878  -0.1702  -0.2390   0.2523  25.00    1.0
2020/06/08 02:23:26.000   34.545129224  135.504674275    61.1830   2   5   2.6763   1.9084   1.6663   2.1507  -1.7463  -1.8463  26.00    1.2
2020/06/08 02:23:27.000   34.545034401  135.504558730    67.3383   2   7   0.9237   1.4163   3.3672   0.5467  -1.4463  -0.9694  27.00    1.2
2020/06/08 02:23:28.000   34.545091462  135.504574409    73.1250   2   8   0.3854   0.4609   0.5191   0.3915  -0.4624  -0.3875  28.00    1.4
2020/06/08 02:23:29.000   34.545090098  135.504586438    72.2237   2   7   0.3378   0.3721   0.4365   0.3154  -0.3684  -0.2951  29.00    2.0
2020/06/08 02:23:30.000   34.545086178  135.504598451    71.9344   2   7   0.2955   0.3164   0.3727   0.2656  -0.3122  -0.2468  -0.00    2.3
2020/06/08 02:23:31.000   34.545049832  135.504590287    73.1515   2   7   0.9157   0.5995   0.5013   0.7189  -0.5201  -0.6045   1.00    1.7
2020/06/08 02:23:32.000   34.545064638  135.504622401    71.7140   2   7   0.2662   0.2660   0.3266   0.2185  -0.2588  -0.1919   2.00    1.1
2020/06/08 02:23:33.000   34.545054674  135.504634807    71.3682   2   7   0.2540   0.2467   0.3085   0.2031  -0.2378  -0.1744   2.99    1.1
2020/06/08 02:23:34.000   34.545044913  135.504644967    71.1715   2   7   0.2444   0.2315   0.2946   0.1904  -0.2212  -0.1597   3.99    1.1
2020/06/08 02:23:35.000   34.545035680  135.504654956    70.9467   2   7   0.2365   0.2189   0.2834   0.1799  -0.2074  -0.1474   4.99    2.3
2020/06/08 02:23:36.000   34.545025413  135.504665288    70.7793   2   7   0.2297   0.2083   0.2741   0.1710  -0.1957  -0.1367   5.99    1.0
2020/06/08 02:23:37.000   34.545014154  135.504679845    70.6092   2   7   0.2252   0.2062   0.2754   0.1600  -0.1950  -0.1208   6.99    1.4
2020/06/08 02:23:38.000   34.545002600  135.504697719    70.4472   2   7   0.2193   0.1948   0.2640   0.1552  -0.1814  -0.1158   7.99    1.2
2020/06/08 02:23:39.000   34.544991501  135.504719947    70.3156   2   7   0.2145   0.1868   0.2566   0.1500  -0.1719  -0.1094   8.99    1.2
2020/06/08 02:23:40.000   34.544978933  135.504741967    70.2643   2   8   0.2069   0.1755   0.2481   0.1398  -0.1595  -0.0962   9.99    1.2
2020/06/08 02:23:41.000   34.544962912  135.504762692    70.1898   2   8   0.2001   0.1663   0.2413   0.1310  -0.1494  -0.0848  10.99    1.7
2020/06/08 02:23:42.000   34.544944503  135.504781340    70.2335   2   8   0.1945   0.1585   0.2358   0.1237  -0.1407  -0.0744  11.99    2.4
2020/06/08 02:23:43.000   34.544926231  135.504800252    70.1759   2   8   0.1906   0.1524   0.2312   0.1184  -0.1330  -0.0641  12.99    1.1
2020/06/08 02:23:44.000   34.544909786  135.504822352    70.1236   2   8   0.1859   0.1464   0.2274   0.1124  -0.1265  -0.0551  13.99    1.1
2020/06/08 02:23:45.000   34.544900541  135.504851452    70.0020   2   8   0.1819   0.1413   0.2241   0.1073  -0.1206  -0.0459  14.99    1.3
2020/06/08 02:23:46.000   34.544901968  135.504883269    69.8849   2   9   0.1782   0.1360   0.2202   0.1022  -0.1138  -0.0330  15.99    1.6
2020/06/08 02:23:47.000   34.544911728  135.504915292    69.7706   2   9   0.1750   0.1312   0.2161   0.0978  -0.1073  -0.0151  17.00    1.9
2020/06/08 02:23:48.000   34.544925036  135.504945658    69.6872   2  10   0.1717   0.1271   0.2126   0.0939  -0.1016   0.0187  18.00    2.3
2020/06/08 02:23:49.000   34.544940537  135.504975616    69.5864   2  10   0.1688   0.1235   0.2097   0.0904  -0.0964   0.0293  19.00    1.6
2020/06/08 02:23:50.000   34.544958312  135.505005139    69.4572   2  10   0.1647   0.1204   0.2070   0.0871  -0.0934   0.0225  20.00    2.0
2020/06/08 02:23:51.000   34.544976967  135.505033299    69.4130   2   7   0.1732   0.1225   0.2215   0.0745  -0.0810   0.0441  21.00    1.6
2020/06/08 02:23:52.000   34.544994912  135.505061579    69.3186   2   8   0.1720   0.1201   0.2195   0.0713  -0.0745   0.0448  22.00    1.0
2020/06/08 02:23:53.000   34.545013812  135.505089376    69.1428   2   8   0.1664   0.1170   0.2182   0.0727  -0.0688   0.0479  23.00    1.2
2020/06/08 02:23:54.000   34.545035323  135.505114069    69.1729   2   8   0.1637   0.1148   0.2175   0.0717  -0.0628   0.0502  24.00    1.2
2020/06/08 02:23:55.000   34.545057565  135.505136970    69.1752   2   8   0.1702   0.1152   0.2171   0.0611  -0.0557   0.0495  25.00    1.1
2020/06/08 02:23:56.000   34.545079273  135.505160175    69.0512   2   8   0.1641   0.1124   0.2433   0.0646  -0.0526   0.0590  26.00    1.0
2020/06/08 02:23:57.000   34.545100971  135.505184601    68.9945   2   7   0.1618   0.1838   0.3787   0.0533   0.2043   0.0312  27.00    1.6
2020/06/08 02:23:58.000   34.545123191  135.505208920    68.9015   2   7   0.1603   0.1850   0.3775   0.0521   0.2077   0.0265  28.00    1.5
2020/06/08 02:23:59.000   34.545144894  135.505233879    68.8867   2   7   0.1591   0.1859   0.3768   0.0514   0.2103   0.0266  29.00    1.1
2020/06/08 02:24:00.000   34.545167254  135.505258130    68.6673   2   7   0.1427   0.1347   0.2817   0.0526   0.1254  -0.0305  -0.00    1.0
2020/06/08 02:24:01.000   34.545189203  135.505283678    68.6694   2   8   0.1408   0.1298   0.2747   0.0534   0.1193  -0.0204   1.00    1.4
2020/06/08 02:24:02.000   34.545209626  135.505308535    68.6129   2   7   0.1392   0.1283   0.2720   0.0532   0.1188  -0.0099   2.00    1.8
2020/06/08 02:24:03.000   34.545229950  135.505335207    68.5762   2   7   0.1378   0.1273   0.2704   0.0526   0.1193   0.0110   2.99    2.1
2020/06/08 02:24:04.000   34.545249369  135.505361787    68.5275   2   7   0.1366   0.1267   0.2696   0.0518   0.1204   0.0170   3.99    2.3
2020/06/08 02:24:05.000   34.545270485  135.505387071    68.5030   2   7   0.1354   0.1265   0.2692   0.0510   0.1220   0.0208   4.99    2.2
2020/06/08 02:24:06.000   34.545291481  135.505411252    68.4130   2   7   0.1343   0.1264   0.2691   0.0502   0.1238   0.0236   5.99    2.2
2020/06/08 02:24:07.000   34.545312950  135.505436346    68.4329   2   7   0.1333   0.1266   0.2694   0.0494   0.1258   0.0259   6.99    2.2
2020/06/08 02:24:08.000   34.545335326  135.505461124    68.3866   2   8   0.1323   0.1259   0.2676   0.0494   0.1259   0.0306   7.99    2.2
2020/06/08 02:24:09.000   34.545357739  135.505487622    68.2682   2   8   0.1314   0.1253   0.2679   0.0482   0.1271   0.0311   8.99    2.1
2020/06/08 02:24:10.000   34.545380101  135.505516823    68.1441   2   8   0.1306   0.1205   0.2611   0.0472   0.1203   0.0320   9.99    2.0
2020/06/08 02:24:11.000   34.545402777  135.505545537    68.0274   2   8   0.1299   0.1180   0.2582   0.0462   0.1177   0.0326  10.99    1.9
2020/06/08 02:24:12.000   34.545426840  135.505574179    68.0155   2   8   0.1292   0.1162   0.2564   0.0452   0.1164   0.0332  11.99    1.7
2020/06/08 02:24:13.000   34.545451183  135.505602951    68.1380   2   7   0.1303   0.2312   0.5821  -0.0453   0.3435  -0.0980  12.99    1.0
2020/06/08 02:24:14.000   34.545475589  135.505631101    67.9597   2   6   0.1423   0.2144   0.4844  -0.0842   0.2924  -0.1235  13.99    1.1
2020/06/08 02:24:15.000   34.545499108  135.505661032    67.8640   2   8   0.1409   0.1925   0.4390  -0.0718   0.2574  -0.1022  14.99    1.1
2020/06/08 02:24:16.000   34.545522662  135.505691682    67.7248   2   9   0.1356   0.1745   0.3980  -0.0567   0.2298  -0.0886  15.99    1.1
2020/06/08 02:24:17.000   34.545546887  135.505721585    67.7675   2   9   0.1331   0.1622   0.3706  -0.0461   0.2103  -0.0765  17.00    1.1
2020/06/08 02:24:18.000   34.545572419  135.505750768    67.7317   2   7   0.1323   0.1567   0.3668  -0.0428   0.2032  -0.0771  18.00    1.1
2020/06/08 02:24:19.000   34.545597054  135.505780247    67.7186   2   7   0.1411   0.1532   0.3643  -0.0514   0.1921  -0.0453  19.00    1.1
2020/06/08 02:24:20.000   34.545620613  135.505811069    67.7224   2   7   0.1354   0.1484   0.3554  -0.0426   0.1886  -0.0594  20.00    1.1
2020/06/08 02:24:21.000   34.545644591  135.505841271    68.1141   2   8   0.1333   0.1447   0.3383  -0.0379   0.1848  -0.0648  21.00    1.0
2020/06/08 02:24:22.000   34.545668064  135.505872152    68.0432   2   8   0.1318   0.1417   0.3331  -0.0343   0.1808  -0.0606  22.00    1.1
2020/06/08 02:24:23.000   34.545690920  135.505905088    67.9598   2   8   0.1311   0.1391   0.3285  -0.0318   0.1772  -0.0572  23.00    1.2
2020/06/08 02:24:24.000   34.545712763  135.505938656    67.9917   2   8   0.1307   0.1369   0.3249  -0.0297   0.1744  -0.0543  24.00    1.1
2020/06/08 02:24:25.000   34.545734865  135.505971942    68.0103   2   8   0.1304   0.1349   0.3216  -0.0280   0.1718  -0.0515  25.00    1.1
2020/06/08 02:24:26.000   34.545757826  135.506003792    67.7731   2   7   0.1308   0.1333   0.3352  -0.0274   0.1711  -0.0598  26.00    1.0
2020/06/08 02:24:27.000   34.545781154  135.506034686    67.7509   2   7   0.1309   0.1318   0.3342  -0.0262   0.1692  -0.0592  27.00    1.0
2020/06/08 02:24:28.000   34.545804880  135.506064906    67.7087   2   7   0.1311   0.1305   0.3340  -0.0253   0.1678  -0.0588  28.00    1.0
2020/06/08 02:24:29.000   34.545827323  135.506096360    67.6870   2   7   0.1314   0.1292   0.3338  -0.0243   0.1664  -0.0584  29.00    1.1
2020/06/08 02:24:30.000   34.545848181  135.506128243    67.5501   2   7   0.1131   0.1119   0.2721   0.0096   0.1369  -0.0379  -0.00    1.1
2020/06/08 02:24:31.000   34.545869484  135.506159921    67.4223   2   7   0.1119   0.1070   0.2614   0.0194   0.1282  -0.0275   1.00    1.3
2020/06/08 02:24:32.000   34.545891537  135.506192067    67.2878   2   8   0.1109   0.1040   0.2548   0.0223   0.1231  -0.0219   2.00    1.4
2020/06/08 02:24:33.000   34.545915322  135.506222967    67.2726   2   7   0.1102   0.1020   0.2510   0.0237   0.1199  -0.0168   2.99    1.5
2020/06/08 02:24:34.000   34.545939778  135.506252969    67.2606   2   7   0.1097   0.1005   0.2484   0.0244   0.1177  -0.0130   3.99    1.5
2020/06/08 02:24:35.000   34.545963476  135.506282082    66.9217   2   5   0.1219   0.2444   0.5488  -0.1045   0.3500  -0.1569   4.99    1.3
2020/06/08 02:24:36.000   34.545987265  135.506313083    66.9908   2   6   0.1240   0.2565   0.5754  -0.1128   0.3686  -0.1681   5.99    1.3
2020/06/08 02:24:37.000   34.546011400  135.506343641    66.9489   2   6   0.1271   0.2792   0.6247  -0.1257   0.4032  -0.1862   6.99    1.0
2020/06/08 02:24:38.000   34.546036055  135.506374113    66.9154   2   6   0.1201   0.2115   0.4794  -0.0900   0.2991  -0.1317   7.99    1.0
2020/06/08 02:24:39.000   34.546060511  135.506404994    67.0547   2   6   0.1181   0.1840   0.4213  -0.0753   0.2558  -0.1076   8.99    1.0
2020/06/08 02:24:40.000   34.546085179  135.506435034    67.0523   2   6   0.1175   0.1691   0.3907  -0.0675   0.2320  -0.0933   9.99    1.1
2020/06/08 02:24:41.000   34.546109703  135.506464539    67.0240   2   7   0.1176   0.1594   0.3707  -0.0628   0.2161  -0.0828  10.99    1.1
2020/06/08 02:24:42.000   34.546134851  135.506493274    67.0049   2   7   0.1170   0.1524   0.3538  -0.0589   0.2055  -0.0791  11.99    1.1
2020/06/08 02:24:43.000   34.546160323  135.506520878    66.9777   2   7   0.1172   0.1471   0.3419  -0.0565   0.1971  -0.0749  12.99    1.0
2020/06/08 02:24:44.000   34.546184827  135.506548544    66.9680   2   8   0.1193   0.1413   0.3346  -0.0551   0.1851  -0.0565  13.99    1.0
2020/06/08 02:24:45.000   34.546207154  135.506579096    66.8785   2   8   0.1186   0.1377   0.3242  -0.0525   0.1810  -0.0598  14.99    1.0
2020/06/08 02:24:46.000   34.546228860  135.506611012    66.8324   2   8   0.1152   0.1341   0.3173  -0.0473   0.1768  -0.0585  15.99    1.0
2020/06/08 02:24:47.000   34.546251491  135.506642112    66.7476   2   8   0.1140   0.1313   0.3118  -0.0444   0.1731  -0.0564  17.00    1.1
2020/06/08 02:24:48.000   34.546274994  135.506672006    66.7244   2   8   0.1135   0.1289   0.3074  -0.0422   0.1699  -0.0543  18.00    1.1
2020/06/08 02:24:49.000   34.546301887  135.506696291    65.4040   2   9   0.1126   0.1244   0.2974  -0.0368   0.1625  -0.0452  19.00    1.2
2020/06/08 02:24:50.000   34.546322772  135.506732577    66.6655   2   9   0.1220   0.1254   0.2969  -0.0484   0.1624  -0.0497  20.00    1.1
2020/06/08 02:24:51.000   34.546346331  135.506762871    66.6830   2   8   0.1174   0.1231   0.2944  -0.0419   0.1603  -0.0467  21.00    1.2
2020/06/08 02:24:52.000   34.546369113  135.506793977    66.6244   2   8   0.1160   0.1215   0.2922  -0.0389   0.1585  -0.0444  22.00    1.2
2020/06/08 02:24:53.000   34.546391209  135.506824746    66.6225   2   8   0.1154   0.1202   0.2903  -0.0369   0.1569  -0.0422  23.00    1.2
2020/06/08 02:24:54.000   34.546413832  135.506855262    66.5826   2   8   0.1153   0.1191   0.2886  -0.0353   0.1555  -0.0401  24.00    1.2
2020/06/08 02:24:55.000   34.546435723  135.506885631    66.5768   2   8   0.1154   0.1181   0.2872  -0.0340   0.1542  -0.0379  25.00    1.1
2020/06/08 02:24:56.000   34.546457390  135.506916330    66.5314   2   8   0.1156   0.1173   0.2860  -0.0329   0.1532  -0.0357  26.00    1.1
2020/06/08 02:24:57.000   34.546479120  135.506947280    66.5145   2   8   0.1160   0.1165   0.2850  -0.0318   0.1522  -0.0334  27.00    1.1
2020/06/08 02:24:58.000   34.546501391  135.506977697    66.4532   2   8   0.1164   0.1159   0.2842  -0.0309   0.1514  -0.0311  28.00    1.0
2020/06/08 02:24:59.000   34.546523673  135.507007663    66.4393   2   8   0.1170   0.1153   0.2835  -0.0300   0.1507  -0.0286  29.00    1.0
2020/06/08 02:25:00.000   34.546547265  135.507037129    66.5683   2   9   0.0975   0.0985   0.2432  -0.0206   0.1252  -0.0283  -0.00    1.1
2020/06/08 02:25:01.000   34.546570421  135.507066699    66.6523   2   8   0.0965   0.0938   0.2338  -0.0122   0.1173  -0.0156   1.00    1.4
2020/06/08 02:25:02.000   34.546593823  135.507095812    66.6196   2   8   0.0958   0.0908   0.2273   0.0037   0.1121   0.0112   2.00    1.3
2020/06/08 02:25:03.000   34.546616908  135.507125484    66.6936   2   8   0.0953   0.0887   0.2228   0.0107   0.1084   0.0191   2.99    1.2
2020/06/08 02:25:04.000   34.546639552  135.507155663    66.6976   2   8   0.0949   0.0871   0.2195   0.0136   0.1056   0.0231   3.99    1.2
2020/06/08 02:25:05.000   34.546661791  135.507186429    66.6508   2   8   0.0946   0.0858   0.2168   0.0155   0.1034   0.0258   4.99    1.1
2020/06/08 02:25:06.000   34.546683800  135.507217463    66.6312   2   8   0.0944   0.0848   0.2146   0.0168   0.1015   0.0279   5.99    1.1
2020/06/08 02:25:07.000   34.546706621  135.507247692    66.6390   2   8   0.0942   0.0838   0.2127   0.0179   0.0999   0.0296   6.99    1.1
2020/06/08 02:25:08.000   34.546729536  135.507277496    66.6153   2   8   0.0941   0.0830   0.2111   0.0188   0.0984   0.0311   7.99    1.0
2020/06/08 02:25:09.000   34.546753091  135.507306490    66.5926   2   9   0.0940   0.0822   0.2094   0.0196   0.0971   0.0326   8.99    1.0
2020/06/08 02:25:10.000   34.546776567  135.507336418    66.5555   2   9   0.0940   0.0815   0.2076   0.0202   0.0961   0.0342   9.99    1.0
2020/06/08 02:25:11.000   34.546799593  135.507366980    66.5844   2   9   0.0941   0.0808   0.2061   0.0208   0.0951   0.0356  10.99    1.0
2020/06/08 02:25:12.000   34.546822052  135.507398028    66.5571   2  10   0.0942   0.0802   0.2045   0.0213   0.0940   0.0366  11.99    1.0
2020/06/08 02:25:13.000   34.546845030  135.507428423    66.5261   2   8   0.1022   0.0817   0.2105  -0.0132   0.0879   0.0581  12.99    1.1
2020/06/08 02:25:14.000   34.546868655  135.507457985    66.5333   2   8   0.1013   0.0805   0.2064   0.0050   0.0892   0.0535  13.99    1.2
2020/06/08 02:25:15.000   34.546892058  135.507487291    66.5469   2   8   0.1016   0.0799   0.2045   0.0093   0.0890   0.0530  14.99    1.3
2020/06/08 02:25:16.000   34.546914973  135.507516164    66.5195   2   9   0.1021   0.0794   0.2032   0.0117   0.0886   0.0534  15.99    1.4
2020/06/08 02:25:17.000   34.546938829  135.507544314    66.5176   2   9   0.0996   0.0787   0.2017   0.0175   0.0886   0.0507  17.00    1.4
2020/06/08 02:25:18.000   34.546962183  135.507571995    66.5220   2   9   0.0990   0.0782   0.2006   0.0198   0.0883   0.0503  18.00    1.5
2020/06/08 02:25:19.000   34.546985545  135.507599126    66.5399   2   9   0.1047   0.0782   0.2008   0.0143   0.0870   0.0570  19.00    1.0
2020/06/08 02:25:20.000   34.547010745  135.507622012    66.5406   2   9   0.1017   0.0776   0.1995   0.0199   0.0871   0.0540  20.00    1.1
2020/06/08 02:25:21.000   34.547039879  135.507635495    66.5193   2  10   0.1009   0.0773   0.1987   0.0221   0.0868   0.0535  21.00    1.2
2020/06/08 02:25:22.000   34.547070764  135.507636424    66.5065   2  10   0.1006   0.0811   0.2047   0.0095   0.0943   0.0384  22.00    1.1
2020/06/08 02:25:23.000   34.547100488  135.507625236    66.5140   2  10   0.0994   0.0789   0.1997   0.0178   0.0902   0.0416  23.00    1.1
2020/06/08 02:25:24.000   34.547127445  135.507605263    66.5672   2   9   0.1020   0.0781   0.2006   0.0221   0.0890   0.0517  24.00    1.1
2020/06/08 02:25:25.000   34.547153278  135.507583122    66.5808   2   9   0.1030   0.0816   0.2089   0.0172   0.0965   0.0469  25.00    1.1
2020/06/08 02:25:26.000   34.547173445  135.507560264    64.5309   2   9   0.1013   0.0792   0.2027   0.0227   0.0881   0.0290  26.00    1.3
2020/06/08 02:25:27.000   34.547205731  135.507538877    66.1431   2   8   0.1039   0.0786   0.2101   0.0260   0.0861   0.0511  27.00    1.1
2020/06/08 02:25:28.000   34.547230507  135.507516269    66.2212   2   9   0.1045   0.0783   0.2087   0.0276   0.0847   0.0534  28.00    1.2
2020/06/08 02:25:29.000   34.547254254  135.507490931    66.2462   2   9   0.1052   0.0781   0.2080   0.0289   0.0836   0.0551  29.00    1.2
2020/06/08 02:25:30.000   34.547277783  135.507464081    66.5150   2   8   0.0852   0.0692   0.1780   0.0193   0.0779   0.0376  -0.00    1.2
2020/06/08 02:25:31.000   34.547300823  135.507436409    66.3382   2  10   0.0847   0.0684   0.1761   0.0203   0.0769   0.0379   1.00    1.1
2020/06/08 02:25:32.000   34.547324343  135.507408000    66.3477   2   9   0.0843   0.0679   0.1749   0.0209   0.0760   0.0382   2.00    1.1
2020/06/08 02:25:33.000   34.547348444  135.507379627    66.3331   2   9   0.0840   0.0674   0.1739   0.0213   0.0753   0.0385   2.99    1.1
2020/06/08 02:25:34.000   34.547372673  135.507351612    65.7388   2  11   0.0838   0.0669   0.1727   0.0215   0.0746   0.0386   3.99    1.3
2020/06/08 02:25:35.000   34.547396012  135.507322190    65.8756   2  11   0.0834   0.0666   0.1715   0.0216   0.0740   0.0382   4.99    1.5
2020/06/08 02:25:36.000   34.547419613  135.507292525    66.2719   2  10   0.0832   0.0663   0.1708   0.0219   0.0733   0.0376   5.99    1.5
2020/06/08 02:25:37.000   34.547445613  135.507264908    66.2368   2  11   0.0830   0.0660   0.1699   0.0220   0.0727   0.0373   6.99    1.5
2020/06/08 02:25:38.000   34.547473188  135.507238655    66.3794   2   9   0.0835   0.0657   0.1701   0.0225   0.0723   0.0393   7.99    1.2
2020/06/08 02:25:39.000   34.547500154  135.507211526    66.3308   2   9   0.0830   0.0655   0.1692   0.0225   0.0716   0.0377   8.99    1.2
2020/06/08 02:25:40.000   34.547523932  135.507181941    66.0154   2  12   0.0826   0.0652   0.1676   0.0223   0.0714   0.0367   9.99    1.7
2020/06/08 02:25:41.000   34.547547650  135.507147987    66.9478   2  11   0.0824   0.0650   0.1666   0.0220   0.0708   0.0360  10.99    1.5
2020/06/08 02:25:42.000   34.547579630  135.507124219    66.1313   2  10   0.0824   0.0650   0.1661   0.0227   0.0698   0.0341  11.99    1.6
2020/06/08 02:25:43.000   34.547607924  135.507096747    66.0837   2  10   0.0823   0.0649   0.1654   0.0229   0.0692   0.0331  12.99    1.6
2020/06/08 02:25:44.000   34.547637150  135.507069015    65.5984   2  11   0.0820   0.0645   0.1650   0.0221   0.0696   0.0348  13.99    1.1
2020/06/08 02:25:45.000   34.547663388  135.507038238    65.5651   2  11   0.0818   0.0643   0.1638   0.0219   0.0690   0.0334  14.99    1.0
2020/06/08 02:25:46.000   34.547689237  135.507006958    65.5736   2  11   0.0817   0.0642   0.1630   0.0218   0.0686   0.0324  15.99    1.2
2020/06/08 02:25:47.000   34.547715276  135.506975902    65.5481   2  11   0.0816   0.0641   0.1622   0.0217   0.0682   0.0315  17.00    1.3
2020/06/08 02:25:48.000   34.547741524  135.506945129    65.5556   2  12   0.0815   0.0641   0.1615   0.0216   0.0678   0.0305  18.00    1.4
2020/06/08 02:25:49.000   34.547765801  135.506912532    65.7066   2  12   0.0823   0.0647   0.1617   0.0242   0.0663   0.0258  19.00    1.4
2020/06/08 02:25:50.000   34.547791779  135.506881717    65.7269   2   9   0.0853   0.0669   0.1621   0.0278   0.0660   0.0292  20.00    1.0
2020/06/08 02:25:51.000   34.547817259  135.506850527    65.6837   2  10   0.0851   0.0663   0.1611   0.0265   0.0666   0.0306  21.00    1.0
2020/06/08 02:25:52.000   34.547841902  135.506819609    65.7131   2  10   0.0859   0.0663   0.1615   0.0275   0.0651   0.0271  22.00    1.1
2020/06/08 02:25:53.000   34.547867074  135.506788427    65.6831   2   9   0.0886   0.0663   0.1672   0.0302   0.0671   0.0397  23.00    1.1
2020/06/08 02:25:54.000   34.547890262  135.506752158    67.3811   2  10   0.0911   0.0656   0.1685   0.0293   0.0690   0.0498  24.00    1.1
2020/06/08 02:25:55.000   34.547917542  135.506727398    65.6675   2   8   0.0930   0.0688   0.1731   0.0340   0.0667   0.0497  25.00    1.1
2020/06/08 02:25:56.000   34.547943216  135.506697327    65.6278   2   8   0.0934   0.0677   0.1741   0.0327   0.0663   0.0506  26.00    1.1
2020/06/08 02:25:57.000   34.547965377  135.506665684    65.0391   2   9   0.0914   0.0694   0.1669   0.0336   0.0641   0.0362  27.00    1.1
2020/06/08 02:25:58.000   34.547990107  135.506633455    65.1116   2  10   0.0908   0.0682   0.1650   0.0319   0.0634   0.0307  28.00    1.2
2020/06/08 02:25:59.000   34.548015384  135.506602086    65.4068   2   9   0.0893   0.0681   0.1700   0.0314   0.0637   0.0324  29.00    1.2
2020/06/08 02:26:00.000   34.548042395  135.506572714    65.6304   2   8   0.0754   0.0644   0.1647   0.0179   0.0759   0.0290  -0.00    1.9
2020/06/08 02:26:01.000   34.548068381  135.506543776    65.7891   2   8   0.0755   0.0976   0.2457  -0.0156   0.1384  -0.0238   1.00    1.1
2020/06/08 02:26:02.000   34.548093243  135.506513336    65.7250   2   8   0.0750   0.0818   0.2067   0.0113   0.1100   0.0189   2.00    1.2
2020/06/08 02:26:03.000   34.548118215  135.506482593    65.6624   2   8   0.0748   0.0758   0.1922   0.0159   0.0989   0.0259   2.99    1.3
2020/06/08 02:26:04.000   34.548142348  135.506434172    61.5529   2   9   0.0747   0.0665   0.1681   0.0173   0.0799   0.0279   3.99    1.8
2020/06/08 02:26:05.000   34.548167504  135.506403104    61.6351   2   9   0.0745   0.0656   0.1658   0.0190   0.0780   0.0295   4.99    1.3
2020/06/08 02:26:06.000   34.548192688  135.506372554    61.7187   2  11   0.0743   0.0649   0.1638   0.0195   0.0766   0.0301   5.99    1.1
2020/06/08 02:26:07.000   34.548218840  135.506343832    61.9805   2   9   0.0749   0.0648   0.1637   0.0213   0.0764   0.0335   6.99    1.0
2020/06/08 02:26:08.000   34.548240551  135.506305963    61.7379   2   9   0.0745   0.0641   0.1627   0.0210   0.0750   0.0318   7.99    1.2
2020/06/08 02:26:09.000   34.548264465  135.506278553    61.9421   2   9   0.0762   0.0642   0.1621   0.0237   0.0735   0.0281   8.99    1.1
2020/06/08 02:26:10.000   34.548265645  135.506243940    58.1954   2  10   0.0770   0.0641   0.1611   0.0242   0.0727   0.0276   9.99    1.2
2020/06/08 02:26:11.000   34.548310789  135.506223934    61.9728   1   9   0.0288   0.0172   0.0409   0.0156   0.0106   0.0183  10.99    3.1
2020/06/08 02:26:12.000   34.548340321  135.506199073    62.2260   2   9   0.0776   0.0633   0.1621   0.0232   0.0722   0.0328  11.99    1.3
2020/06/08 02:26:13.000   34.548374075  135.506178484    62.7382   2   9   0.6229   0.4048   0.3875   0.4976  -0.3677  -0.4646  12.99    1.0
2020/06/08 02:26:14.000   34.548398294  135.506148993    62.9216   2   9   0.4244   0.2771   0.2882   0.3363  -0.2436  -0.3143  13.99    1.9
2020/06/08 02:26:15.000   34.548427689  135.506123281    62.6857   2   9   0.3363   0.2207   0.2476   0.2641  -0.1867  -0.2469  14.99    1.1
2020/06/08 02:26:16.000   34.548455200  135.506096323    62.6141   2  10   0.2843   0.1876   0.2249   0.2212  -0.1516  -0.2064  15.99    1.2
2020/06/08 02:26:17.000   34.548479403  135.506067349    62.6059   2   8   0.2566   0.1694   0.2159   0.1973  -0.1313  -0.1818  17.00    1.1
2020/06/08 02:26:18.000   34.548505199  135.506046467    59.4810   2   9   0.2342   0.1549   0.2062   0.1781  -0.1139  -0.1627  18.00    1.3
2020/06/08 02:26:19.000   34.548532444  135.506015129    59.5077   2   9   0.2182   0.1442   0.2017   0.1639  -0.1011  -0.1498  19.00    1.2
2020/06/08 02:26:20.000   34.548551104  135.505978233    62.1173   2   9   0.2052   0.1361   0.1991   0.1527  -0.0914  -0.1381  20.00    1.1
2020/06/08 02:26:21.000   34.548573589  135.505947789    62.3615   2   9   0.1948   0.1293   0.1939   0.1434  -0.0811  -0.1278  21.00    1.6
2020/06/08 02:26:22.000   34.548596356  135.505917036    62.4718   2   8   0.1875   0.1248   0.1936   0.1368  -0.0757  -0.1210  22.00    1.1
2020/06/08 02:26:23.000   34.548619483  135.505886444    62.5688   2   8   0.1812   0.1207   0.1922   0.1310  -0.0697  -0.1147  23.00    1.3
2020/06/08 02:26:24.000   34.548644071  135.505856121    62.6087   2   9   0.1752   0.1167   0.1907   0.1253  -0.0632  -0.1080  24.00    1.8
2020/06/08 02:26:25.000   34.548669279  135.505826935    62.6499   2   9   0.1701   0.1131   0.1875   0.1203  -0.0552  -0.1016  25.00    1.6
2020/06/08 02:26:26.000   34.548695820  135.505800032    62.6746   2   9   0.1659   0.1105   0.1892   0.1162  -0.0520  -0.0968  26.00    1.0
2020/06/08 02:26:27.000   34.548722168  135.505772897    62.6774   2   9   0.1621   0.1076   0.1861   0.1122  -0.0436  -0.0911  27.00    1.1
2020/06/08 02:26:28.000   34.548746321  135.505743762    62.6965   2   8   0.1595   0.1061   0.1892   0.1095  -0.0431  -0.0881  28.00    1.1
2020/06/08 02:26:29.000   34.548768652  135.505713337    62.7215   2   8   0.1571   0.1044   0.1895   0.1068  -0.0392  -0.0843  29.00    1.2
2020/06/08 02:26:30.000   34.548791895  135.505683781    62.8511   2   8   0.1431   0.0974   0.1632   0.1013  -0.0408  -0.0917  -0.00    1.8
2020/06/08 02:26:31.000   34.548815865  135.505655065    62.8635   2   8   0.1403   0.0958   0.1620   0.0990  -0.0375  -0.0891   1.00    1.1
2020/06/08 02:26:32.000   34.548841022  135.505628399    62.8555   2   8   0.1377   0.0941   0.1609   0.0966  -0.0348  -0.0869   2.00    1.1
2020/06/08 02:26:33.000   34.548866427  135.505602035    62.8966   2   8   0.1353   0.0925   0.1600   0.0944  -0.0321  -0.0848   2.99    1.2
2020/06/08 02:26:34.000   34.548892298  135.505576445    62.8878   2   8   0.1332   0.0911   0.1592   0.0924  -0.0293  -0.0828   3.99    1.2
2020/06/08 02:26:35.000   34.548918292  135.505550661    62.9174   2   8   0.1312   0.0898   0.1586   0.0905  -0.0266  -0.0809   4.99    1.2
2020/06/08 02:26:36.000   34.548942087  135.505521624    62.9014   2   8   0.1293   0.0885   0.1580   0.0888  -0.0237  -0.0790   5.99    1.1
2020/06/08 02:26:37.000   34.548964583  135.505491222    62.9233   2   9   0.1275   0.0875   0.1574   0.0870  -0.0187  -0.0766   6.99    1.2
2020/06/08 02:26:38.000   34.548987660  135.505461751    62.9265   2   9   0.1257   0.0861   0.1565   0.0852  -0.0135  -0.0744   7.99    1.3
2020/06/08 02:26:39.000   34.549012177  135.505433711    62.9280   2   8   0.1243   0.0852   0.1566   0.0837  -0.0103  -0.0728   8.99    1.3
2020/06/08 02:26:40.000   34.549040118  135.505414410    60.3939   2   9   0.1228   0.0840   0.1556   0.0821   0.0093  -0.0706   9.99    1.2
2020/06/08 02:26:41.000   34.549062077  135.505381121    62.9418   2   9   0.1215   0.0832   0.1562   0.0808   0.0106  -0.0693  10.99    1.2
2020/06/08 02:26:42.000   34.549084471  135.505352688    62.9299   2   9   0.1197   0.0824   0.1551   0.0795   0.0128  -0.0695  11.99    1.2
2020/06/08 02:26:43.000   34.549101612  135.505319077    62.8713   2   9   0.1194   0.0817   0.1564   0.0784   0.0165  -0.0662  12.99    1.2
2020/06/08 02:26:44.000   34.549110285  135.505280913    62.8730   2   9   0.1175   0.0810   0.1551   0.0771   0.0174  -0.0672  13.99    1.2
2020/06/08 02:26:45.000   34.549109248  135.505242499    62.8877   2   8   0.1178   0.0804   0.1569   0.0763   0.0206  -0.0630  14.99    1.2
2020/06/08 02:26:46.000   34.549098426  135.505206435    62.8927   2   7   0.1179   0.0821   0.1744   0.0738   0.0436  -0.0687  15.99    1.0
2020/06/08 02:26:47.000   34.549081125  135.505173947    62.9245   2   7   0.1174   0.0818   0.1769   0.0727   0.0463  -0.0682  17.00    1.0
2020/06/08 02:26:48.000   34.549062131  135.505143127    62.9639   2   8   0.1170   0.0816   0.1789   0.0717   0.0484  -0.0674  18.00    1.0
2020/06/08 02:26:49.000   34.549042074  135.505112619    62.9779   2   9   0.1166   0.0814   0.1812   0.0705   0.0511  -0.0664  19.00    1.0
2020/06/08 02:26:50.000   34.549020576  135.505083502    63.0142   2   9   0.1157   0.0794   0.1702   0.0705   0.0447  -0.0594  20.00    1.0
2020/06/08 02:26:51.000   34.548998861  135.505054656    63.0196   2   9   0.1152   0.0784   0.1666   0.0700   0.0431  -0.0555  21.00    1.0
2020/06/08 02:26:52.000   34.548976854  135.505025154    63.0468   2   9   0.1149   0.0778   0.1649   0.0694   0.0430  -0.0523  22.00    1.0
2020/06/08 02:26:53.000   34.548954570  135.504994737    63.0174   2  11   0.1146   0.0772   0.1640   0.0686   0.0431  -0.0498  23.00    1.0
2020/06/08 02:26:54.000   34.548931455  135.504964826    63.0262   2   9   0.1121   0.0805   0.1705   0.0637   0.0561  -0.0633  24.00    1.0
2020/06/08 02:26:55.000   34.548905131  135.504932785    62.1930   2  10   0.1131   0.0798   0.1659   0.0624   0.0536  -0.0635  25.00    1.0
2020/06/08 02:26:56.000   34.548883892  135.504905104    63.1222   2   9   0.1161   0.0816   0.2018   0.0635   0.0677  -0.0631  26.00    1.1
2020/06/08 02:26:57.000   34.548860726  135.504874492    63.1549   2   9   0.1153   0.0786   0.1833   0.0647   0.0578  -0.0505  27.00    1.1
2020/06/08 02:26:58.000   34.548837821  135.504843631    63.1200   2   8   0.1159   0.0821   0.1890   0.0623   0.0693  -0.0519  28.00    1.1
2020/06/08 02:26:59.000   34.548820120  135.504818175    64.5215   2   9   0.1113   0.0812   0.1776   0.0577   0.0643  -0.0674  29.00    1.1
2020/06/08 02:27:00.000   34.548789438  135.504786700    63.2035   2   9   0.0985   0.0687   0.1419   0.0604   0.0353  -0.0541  -0.00    1.3
2020/06/08 02:27:01.000   34.548767033  135.504755872    63.1186   2  10   0.0977   0.0682   0.1412   0.0596   0.0357  -0.0532   1.00    1.1
2020/06/08 02:27:02.000   34.548747781  135.504722674    63.1193   2   9   0.0970   0.0676   0.1403   0.0590   0.0357  -0.0521   2.00    1.1
2020/06/08 02:27:03.000   34.548726977  135.504690743    63.0758   2   8   0.0964   0.0673   0.1407   0.0582   0.0371  -0.0517   2.99    1.0
2020/06/08 02:27:04.000   34.548703352  135.504662571    63.0907   2   8   0.0958   0.0670   0.1408   0.0575   0.0381  -0.0510   3.99    1.0
2020/06/08 02:27:05.000   34.548680303  135.504634192    63.1011   2   7   0.0970   0.0671   0.1412   0.0556   0.0383  -0.0491   4.99    1.4
2020/06/08 02:27:06.000   34.548657748  135.504605360    63.1381   2   7   0.0970   0.0670   0.1415   0.0546   0.0393  -0.0483   5.99    1.5
2020/06/08 02:27:07.000   34.548634760  135.504576214    63.1808   2   7   0.0979   0.0672   0.1467   0.0532   0.0373  -0.0428   6.99    1.0
2020/06/08 02:27:08.000   34.548612523  135.504546543    63.2618   2   7   0.0982   0.0669   0.1459   0.0525   0.0346  -0.0384   7.99    1.0
2020/06/08 02:27:09.000   34.548590667  135.504516790    63.2468   2   6   0.0990   0.0675   0.1506   0.0508   0.0380  -0.0383   8.99    1.0
2020/06/08 02:27:10.000   34.548568526  135.504486868    63.2397   2   6   0.0998   0.0677   0.1529   0.0495   0.0384  -0.0357   9.99    1.0
2020/06/08 02:27:11.000   34.548546745  135.504457005    63.2309   2   6   0.1008   0.0680   0.1556   0.0481   0.0388  -0.0325  10.99    1.1
2020/06/08 02:27:12.000   34.548525136  135.504426070    63.1987   2   6   0.1018   0.0684   0.1584   0.0466   0.0393  -0.0288  11.99    1.1
2020/06/08 02:27:13.000   34.548502181  135.504396266    63.2207   2   7   0.1030   0.0688   0.1613   0.0451   0.0400  -0.0245  12.99    1.0
2020/06/08 02:27:14.000   34.548479250  135.504366350    63.2399   2   8   0.0994   0.0679   0.1602   0.0480   0.0458  -0.0379  13.99    1.1
2020/06/08 02:27:15.000   34.548456637  135.504336903    63.2961   2   9   0.0980   0.0666   0.1536   0.0496   0.0421  -0.0358  14.99    1.3
2020/06/08 02:27:16.000   34.548433928  135.504308340    63.3264   2   9   0.0974   0.0658   0.1503   0.0500   0.0425  -0.0338  15.99    1.3
2020/06/08 02:27:17.000   34.548411843  135.504280385    63.3856   2  10   0.0970   0.0654   0.1489   0.0501   0.0428  -0.0324  17.00    1.4
2020/06/08 02:27:18.000   34.548388687  135.504253478    63.4252   2   9   0.0970   0.0652   0.1484   0.0502   0.0434  -0.0304  18.00    1.5
2020/06/08 02:27:19.000   34.548365063  135.504230915    63.5894   2   9   0.0981   0.0684   0.1706   0.0478   0.0571  -0.0447  19.00    1.1
2020/06/08 02:27:20.000   34.548340026  135.504210962    63.7072   2   9   0.1079   0.0678   0.1633   0.0424   0.0461   0.0208  20.00    1.1
2020/06/08 02:27:21.000   34.548293380  135.504187126    60.3179   2  11   0.0960   0.0667   0.1504   0.0459   0.0463  -0.0426  21.00    1.5
2020/06/08 02:27:22.000   34.548281579  135.504160157    61.3174   2  11   0.0976   0.0659   0.1485   0.0461   0.0449  -0.0370  22.00    1.3
2020/06/08 02:27:23.000   34.548260815  135.504131921    61.6759   2  11   0.0953   0.0655   0.1465   0.0457   0.0440  -0.0396  23.00    1.1
2020/06/08 02:27:24.000   34.548239062  135.504103291    61.9349   2  10   0.0987   0.0690   0.1511   0.0402   0.0532  -0.0489  24.00    1.7
2020/06/08 02:27:25.000   34.548217764  135.504074489    62.2640   2   8   0.0992   0.1016   0.1917   0.0139   0.1065  -0.0656  25.00    1.2
2020/06/08 02:27:26.000   34.548204171  135.504033118    61.0660   2  10   0.1450   0.2259   0.3498  -0.1294   0.2637  -0.1590  26.00    1.0
2020/06/08 02:27:27.000   34.548184200  135.503990234    58.9578   2   9   0.1234   0.1376   0.2054  -0.0844   0.1398  -0.1132  27.00    1.1
2020/06/08 02:27:28.000   34.548160709  135.503961336    58.9459   2   8   0.1178   0.1269   0.1974  -0.0699   0.1285  -0.1018  28.00    1.0
2020/06/08 02:27:29.000   34.548138779  135.503936915    59.8794   2   7   0.1151   0.1738   0.3048  -0.0486   0.2105  -0.0799  29.00    1.2
2020/06/08 02:27:30.000   34.548113784  135.503916074    61.3336   2   8   0.0844   0.0837   0.1727   0.0326   0.0917  -0.0562  -0.00    1.7
2020/06/08 02:27:31.000   34.548089102  135.503887046    61.3876   2   9   0.0832   0.0798   0.1677   0.0357   0.0864  -0.0528   1.00    1.2
2020/06/08 02:27:32.000   34.548065367  135.503856653    61.3976   2   8   0.0826   0.0814   0.1725   0.0369   0.0906  -0.0506   2.00    1.4
2020/06/08 02:27:33.000   34.548042421  135.503811675    58.7373   2   9   0.0822   0.0763   0.1632   0.0378   0.0817  -0.0486   2.99    1.8
2020/06/08 02:27:34.000   34.548018105  135.503795364    61.3906   2   7   0.0820   0.0812   0.1723   0.0376   0.0908  -0.0481   3.99    2.5
2020/06/08 02:27:35.000   34.547994149  135.503765235    61.3962   2   7   0.0818   0.0818   0.1733   0.0378   0.0920  -0.0470   4.99    2.7
2020/06/08 02:27:36.000   34.547970065  135.503735823    61.4830   2   8   0.0817   0.0825   0.1739   0.0381   0.0930  -0.0456   5.99    2.6
2020/06/08 02:27:37.000   34.547946604  135.503705373    61.4732   2   7   0.0817   0.0839   0.1760   0.0381   0.0953  -0.0447   6.99    2.6
2020/06/08 02:27:38.000   34.547922981  135.503675332    61.5403   2   8   0.0818   0.0849   0.1777   0.0380   0.0971  -0.0439   7.99    2.7
2020/06/08 02:27:39.000   34.547898863  135.503645632    61.5681   2   8   0.0819   0.0794   0.1693   0.0378   0.0885  -0.0432   8.99    2.8
2020/06/08 02:27:40.000   34.547875119  135.503618529    62.0886   2   9   0.0820   0.0752   0.1621   0.0382   0.0812  -0.0414   9.99    2.7
2020/06/08 02:27:41.000   34.547852250  135.503587611    61.9543   2   9   0.0822   0.0754   0.1637   0.0375   0.0823  -0.0415  10.99    2.7
2020/06/08 02:27:42.000   34.547828088  135.503557721    61.9682   2   9   0.0823   0.0742   0.1611   0.0380   0.0799  -0.0390  11.99    2.6
2020/06/08 02:27:43.000   34.547803606  135.503526971    61.8011   2   9   0.0828   0.0931   0.1898   0.0386   0.1096  -0.0373  12.99    1.1
2020/06/08 02:27:44.000   34.547779849  135.503496398    61.8222   2   7   0.0839   0.0829   0.1741   0.0388   0.0939  -0.0341  13.99    1.8
2020/06/08 02:27:45.000   34.547755719  135.503466437    61.8274   2   7   0.0844   0.0791   0.1684   0.0388   0.0879  -0.0322  14.99    1.5
2020/06/08 02:27:46.000   34.547733641  135.503436944    61.9755   2   6   0.1846   0.1836   0.3555  -0.1571  -0.2093   0.2201  15.99    2.9
2020/06/08 02:27:47.000   34.547689614  135.503424819    59.2006   2   4   1.2311   0.8474   1.6528  -1.0156  -1.1744   1.4187  17.00    1.1
2020/06/08 02:27:48.000   34.547671006  135.503388535    61.6026   2   4   1.6152   0.6475   1.1005  -0.9733  -0.5008  -0.2319  18.00    2.7
2020/06/08 02:27:49.000   34.547648426  135.503354939    63.0590   2   6   0.3458   0.2901   1.4306   0.1896  -0.5980  -0.5715  19.00    5.2
2020/06/08 02:27:51.000   34.547612019  135.503282965    66.0279   2   5   0.2866   0.2659   1.1624   0.0999  -0.5068  -0.3971  21.00   35.0
2020/06/08 02:27:52.000   34.547590775  135.503247416    67.2868   2   5   0.2689   0.2561   1.0621   0.0442  -0.4709  -0.3296  22.00  153.3
2020/06/08 02:27:53.000   34.547559704  135.503240524    71.6696   2   6   0.5892   0.8215   1.8014  -0.5577   1.0232  -0.3015  23.00    0.0
2020/06/08 02:27:54.000   34.547534075  135.503213772    71.4809   2   5   0.6042   1.4496   3.0696  -0.8030   2.0311  -0.9809  24.00    0.0
2020/06/08 02:27:56.000   34.547535706  135.503084666    73.8317   2   4   3.0600   2.9091   6.6529  -2.9232  -4.3187   4.3893  26.00  876.3
2020/06/08 02:27:57.000   34.547490667  135.503088365    69.3186   2   4   1.8299   1.6774   3.7740  -1.6814  -2.4213   2.5081  27.00   21.9
2020/06/08 02:27:58.000   34.547440190  135.503091751    64.4874   2   5   1.5154   0.8798   1.9797  -1.0540  -1.1741   1.5251  28.00    0.0
2020/06/08 02:27:59.000   34.547407172  135.503068455    61.6200   2   6   0.4324   0.4404   0.9546  -0.2392  -0.3487   0.2284  29.00    0.0
2020/06/08 02:28:00.000   34.547386398  135.503042250    61.1442   2   5   0.3923   0.4437   0.8950  -0.2241  -0.3713   0.2466  -0.00    0.0
2020/06/08 02:28:01.000   34.547380112  135.503037843    54.9306   2   5   1.4388   2.5507   5.1060  -1.3255   3.5409  -1.6506   1.00    2.1
2020/06/08 02:28:02.000   34.547347113  135.503012927    59.0410   2   5   0.8975   0.9850   1.9919  -0.5543   1.2511  -0.3532   2.00    1.1
2020/06/08 02:28:03.000   34.547332754  135.502946321    54.1196   2   4   0.7741   0.4399   0.7999  -0.4813   0.1077  -0.2155   2.99  217.0
2020/06/08 02:28:04.000   34.547329678  135.502835071    40.0936   2   5   1.1627   2.8416   5.5884  -1.6938   3.9472  -2.3047   3.99  999.9
2020/06/08 02:28:05.000   34.547279845  135.502897926    57.7521   2   6   0.5848   0.3730   0.7355  -0.3693   0.1014   0.1108   4.99    2.8
2020/06/08 02:28:06.000   34.547255717  135.502868736    58.5669   2   6   0.5357   0.3460   0.7097  -0.3357   0.0924   0.1532   5.99   76.8
2020/06/08 02:28:07.000   34.547244373  135.502828677    65.3765   1   6   0.0705   0.2745   0.5807  -0.1331   0.3981  -0.1905   6.99    5.3
2020/06/08 02:28:08.000   34.547218043  135.502796182    62.5419   1   6   0.0773   0.2999   0.6340  -0.1455   0.4348  -0.2081   7.99    5.4
2020/06/08 02:28:09.000   34.547193796  135.502763578    61.9875   2   6   0.4984   0.5250   1.2854  -0.3820   0.4362   0.3490   8.99    1.6
2020/06/08 02:28:10.000   34.547170748  135.502734449    62.1895   2   6   0.4615   0.4519   1.1341  -0.3320   0.3809   0.3168   9.99    1.1
2020/06/08 02:28:11.000   34.547147930  135.502703013    62.2220   2   6   0.4356   0.4044   1.0343  -0.3002   0.3404   0.2989  10.99    3.0
2020/06/08 02:28:12.000   34.547125725  135.502671874    62.5513   1   7   0.0586   0.1527   0.3272  -0.0767   0.2189  -0.0988  11.99    9.1
2020/06/08 02:28:14.000   34.547110978  135.502482006    39.4557   1   6   0.1233   0.4418   0.9372  -0.2187   0.6412  -0.3108  13.99   10.5
2020/06/08 02:28:16.000   34.547080037  135.502305790     6.6743   2   5   1.7483   8.1623  22.9793  -3.7457  13.6880  -6.2708  15.99  785.4
2020/06/08 02:28:17.000   34.547016930  135.502503355    65.3345   2   5   0.3366   0.3356   0.8835  -0.2207   0.3047   0.2038  17.00  254.0
2020/06/08 02:28:18.000   34.546986110  135.502486853    63.9744   2   7   0.3091   0.2933   0.7916  -0.1784   0.3348   0.1218  18.00  305.6
2020/06/08 02:28:19.000   34.546953523  135.502482500    64.4205   2   8   0.3016   0.4874   1.3203  -0.2307   0.7343  -0.2516  19.00    1.9
2020/06/08 02:28:20.000   34.546924866  135.502489246    63.8900   2   8   0.2842   0.3411   0.9467  -0.1637   0.4735   0.0743  20.00    1.8
2020/06/08 02:28:21.000   34.546899565  135.502507485    63.7677   2   8   0.2678   0.2812   0.7914  -0.1301   0.3682   0.1336  21.00    1.6
2020/06/08 02:28:22.000   34.546875453  135.502531211    64.0105   2   8   0.2565   0.2493   0.7083  -0.1101   0.3134   0.1463  22.00    2.9
2020/06/08 02:28:23.000   34.546851707  135.502553627    63.8294   2   8   0.2474   0.2279   0.6513  -0.0956   0.2773   0.1495  23.00    1.1
2020/06/08 02:28:24.000   34.546826783  135.502577058    63.8253   2   8   0.2398   0.2121   0.6087  -0.0840   0.2512   0.1495  24.00    2.0
2020/06/08 02:28:25.000   34.546804048  135.502600710    63.9538   2   8   0.2331   0.1996   0.5745  -0.0744   0.2310   0.1480  25.00    2.2
2020/06/08 02:28:26.000   34.546781693  135.502626407    64.1040   2   8   0.2378   0.1914   0.5534  -0.0791   0.2094   0.1655  26.00    2.6
2020/06/08 02:28:27.000   34.546759086  135.502652745    64.1133   2   8   0.2270   0.1819   0.5259  -0.0654   0.1990   0.1528  27.00    1.8
2020/06/08 02:28:28.000   34.546736075  135.502678922    64.1152   2   8   0.2205   0.1743   0.5044  -0.0565   0.1889   0.1468  28.00    1.6
2020/06/08 02:28:29.000   34.546711205  135.502704968    64.1125   2   8   0.2154   0.1679   0.4860  -0.0492   0.1798   0.1427  29.00    1.2
2020/06/08 02:28:30.000   34.546686955  135.502730262    64.1422   2   8   0.2011   0.1588   0.4597  -0.0477   0.1716   0.1309  -0.00    1.3
2020/06/08 02:28:31.000   34.546664305  135.502756466    64.2279   2   8   0.1968   0.1536   0.4447  -0.0432   0.1642   0.1280   1.00    1.1
2020/06/08 02:28:32.000   34.546643071  135.502784801    64.4100   2   8   0.1929   0.1489   0.4311  -0.0391   0.1577   0.1254   2.00    1.0
2020/06/08 02:28:33.000   34.546623088  135.502813016    64.3920   2   9   0.1893   0.1446   0.4169  -0.0352   0.1524   0.1227   2.99    1.0
2020/06/08 02:28:34.000   34.546600887  135.502838644    64.4062   2   9   0.1859   0.1406   0.4043  -0.0316   0.1476   0.1204   3.99    1.1
2020/06/08 02:28:35.000   34.546576105  135.502859732    64.4766   2   9   0.1827   0.1370   0.3928  -0.0281   0.1432   0.1182   4.99    1.1
2020/06/08 02:28:36.000   34.546551706  135.502877482    64.6283   2   8   0.1818   0.1344   0.3834  -0.0314   0.1378   0.1194   5.99    1.0
2020/06/08 02:28:37.000   34.546527778  135.502895731    64.7173   2   7   0.1809   0.1323   0.3768  -0.0348   0.1317   0.1215   6.99    1.0
2020/06/08 02:28:38.000   34.546505975  135.502917127    64.7048   2   7   0.1798   0.1301   0.3701  -0.0367   0.1265   0.1224   7.99    1.0
2020/06/08 02:28:39.000   34.546485829  135.502940422    64.7949   2   7   0.1788   0.1282   0.3640  -0.0385   0.1216   0.1234   8.99    1.0
2020/06/08 02:28:40.000   34.546465362  135.502964865    64.8636   2   7   0.1816   0.1266   0.3606  -0.0441   0.1153   0.1301   9.99    1.2
2020/06/08 02:28:41.000   34.546444822  135.502988348    64.8681   2   6   0.1796   0.1260   0.3556  -0.0421   0.1135   0.1295  10.99    1.5
2020/06/08 02:28:42.000   34.546425238  135.503010993    64.9152   2   8   0.1769   0.1236   0.3491  -0.0393   0.1110   0.1269  11.99    1.3
2020/06/08 02:28:43.000   34.546405700  135.503034618    65.4042   2   6   0.2743   0.6536   1.2832  -0.3662   0.8966  -0.4856  12.99    2.5
2020/06/08 02:28:44.000   34.546390883  135.503042003    62.9063   2   7   0.1794   0.1251   0.3492  -0.0514   0.1121   0.1272  13.99    1.3
2020/06/08 02:28:45.000   34.546378342  135.503054361    65.4557   2   7   0.1726   0.1239   0.3514  -0.0364   0.1113   0.1109  14.99    1.7
2020/06/08 02:28:46.000   34.546351207  135.503110042    71.9131   2   6   0.2192   0.5259   1.1590  -0.2626   0.7565  -0.3543  15.99    1.4
2020/06/08 02:28:47.000   34.546340780  135.503087837    63.2091   1   7   0.0681   0.1082   0.2898  -0.0565   0.1439  -0.0139  17.00    9.6
2020/06/08 02:28:48.000   34.546320321  135.503111433    62.7540   1   6   0.0789   0.1349   0.3707  -0.0783   0.0871   0.0682  18.00    7.6
2020/06/08 02:28:49.000   34.546298813  135.503147082    68.9929   2   7   0.1970   0.4709   1.2297  -0.2144   0.7408  -0.3250  19.00    1.0
2020/06/08 02:28:50.000   34.546282349  135.503155621    67.2534   2   7   0.1788   0.3132   0.8216  -0.1352   0.4775  -0.1848  20.00    1.0
2020/06/08 02:28:51.000   34.546268130  135.503169274    67.4307   2   7   0.1726   0.2496   0.6564  -0.1011   0.3677  -0.1187  21.00    1.2
2020/06/08 02:28:52.000   34.546260199  135.503178241    67.2328   2   7   0.1696   0.2190   0.5776  -0.0827   0.3138  -0.0791  22.00    1.5
2020/06/08 02:28:53.000   34.546259346  135.503178589    67.1655   2   7   0.1676   0.2000   0.5279  -0.0699   0.2794  -0.0465  23.00    1.4
2020/06/08 02:28:54.000   34.546258579  135.503177743    67.0756   2   7   0.1661   0.1868   0.4936  -0.0595   0.2551   0.0196  24.00    1.7
2020/06/08 02:28:55.000   34.546256656  135.503180586    66.7490   2   7   0.1820   0.2085   0.5735  -0.1024   0.1521   0.1373  25.00    1.0
2020/06/08 02:28:56.000   34.546256151  135.503181634    66.8343   2   7   0.1726   0.1856   0.5058  -0.0746   0.1801   0.1094  26.00    1.1
